[
  {
    "id": "txepetxa",
    "zone": "antiguo",
    "type": "pintxos",
    "tier": 3,
    "name": "Bar Txepetxa",
    "addr": "Arrandegi Kalea, 5",
    "hours": "Mar–sáb 12:00–15:00 y 19:00–23:00 · cerrado dom–lun",
    "tags": [
      "Anchoas (las mejores del mundo)",
      "Jardinera",
      "Centolla",
      "Foie con compota de manzana"
    ],
    "note": "Maridar con txakoli sin falta",
    "lat": 43.3237381,
    "lng": -1.9840577,
    "placeId": "ChIJfQW8xU2lUQ0RRd5xky_9uBY"
  },
  {
    "id": "casa-urola",
    "zone": "antiguo",
    "type": "pintxos",
    "tier": 3,
    "name": "Casa Urola",
    "addr": "Fermín Calbetón, 20",
    "hours": "Lun, jue–dom 12:00–15:15 y 19:00–23:15 · cerrado mar–mié",
    "tags": [
      "Brocheta de pulpo y panceta",
      "Vieira con almendras y café",
      "Taco de solomillo / txuleta",
      "Foie fresco",
      "Alcachofas"
    ],
    "note": "Txakoli Etxaniz y buenos tintos",
    "lat": 43.3233372,
    "lng": -1.9844592,
    "placeId": "ChIJyanHmE2lUQ0Rcnh9u-v7n3k"
  },
  {
    "id": "tamboril",
    "zone": "antiguo",
    "type": "pintxos",
    "tier": 3,
    "name": "Bar Tamboril",
    "addr": "Plaza de la Constitución",
    "hours": "Mar–sáb 12:30–15:30 y 19:00–22:30 · cerrado dom–lun",
    "tags": [
      "Bola de carne",
      "Champiñones en salsa",
      "Anchoa rebozada (temporada)",
      "Ensaladilla rusa"
    ],
    "lat": 43.3235482,
    "lng": -1.9843337,
    "placeId": "ChIJ4WXkxk2lUQ0RQY1XGfiAeq8"
  },
  {
    "id": "nestor",
    "zone": "antiguo",
    "type": "pintxos",
    "tier": 3,
    "name": "Bar Nestor",
    "addr": "Arrandegi Kalea, 11",
    "hours": "Mar–sáb 12:30–15:00 y 19:30–22:00 · cerrado dom–lun",
    "tags": [
      "Ensalada de tomate",
      "Txuletón",
      "Pimientos verdes asados"
    ],
    "note": "Reserva la tortilla en la ventanilla, antes de abrir",
    "lat": 43.323872,
    "lng": -1.983707,
    "placeId": "ChIJfQW8xU2lUQ0Rn4b6SEEWmLY"
  },
  {
    "id": "borda-berri",
    "zone": "antiguo",
    "type": "pintxos",
    "tier": 2,
    "name": "Borda Berri",
    "addr": "Fermín Calbetón, 12",
    "hours": "Mié–sáb 12:30–15:15 y 19:30–22:30, mar solo noche · cerrado lun",
    "tags": [
      "Falso risotto de champiñones",
      "Papada al vino tinto",
      "Pintxo de kebab",
      "Carrilleras"
    ],
    "lat": 43.3234901,
    "lng": -1.9838915,
    "placeId": "ChIJaxqh3E2lUQ0R9x--5PL9Erg"
  },
  {
    "id": "gandarias",
    "zone": "antiguo",
    "type": "pintxos",
    "tier": 2,
    "name": "Casa Gandarias",
    "addr": "31 de Agosto, 23",
    "hours": "Todos los días 11:00–00:00",
    "tags": [
      "Taco de solomillo con pimiento",
      "Bacalao al pil pil",
      "Brochetas a la parrilla"
    ],
    "lat": 43.3240228,
    "lng": -1.9857835,
    "placeId": "ChIJtR9nSkylUQ0RqDxIyuEHftw"
  },
  {
    "id": "martinez",
    "zone": "antiguo",
    "type": "pintxos",
    "tier": 2,
    "name": "Bar Martínez",
    "addr": "31 de Agosto, 13",
    "hours": "Cerrado jueves · resto variable",
    "tags": [
      "Calabacín relleno",
      "Alcachofas con bacon",
      "Anchoas rebozadas",
      "Hongos y setas"
    ],
    "lat": 43.3242257,
    "lng": -1.9852243,
    "placeId": "ChIJk44qs02lUQ0RLJWw1d7Rm9I"
  },
  {
    "id": "la-vina",
    "zone": "antiguo",
    "type": "pintxos",
    "tier": 2,
    "name": "Bar La Viña",
    "addr": "31 de Agosto, 3",
    "hours": "Mar–dom 10:30–16:00 y 19:00–23:00 · cerrado lun",
    "tags": [
      "Tarta de queso, con un chorrito de Pedro Ximénez"
    ],
    "note": "El postre imprescindible de Donosti",
    "lat": 43.3243861,
    "lng": -1.9847944,
    "placeId": "ChIJtR9nSkylUQ0Ry9r3f_iwXUQ"
  },
  {
    "id": "atari",
    "zone": "antiguo",
    "type": "pintxos",
    "tier": 2,
    "name": "Atari Gastroteka",
    "addr": "Calle Mayor, 18, frente a la Basílica",
    "hours": "Lun, mié–dom 12:30–23:00 (vie–sáb hasta 2:00) · cerrado mar",
    "tags": [
      "Torrija",
      "Carrillera al vino tinto",
      "Huevo a baja temperatura con hongos"
    ],
    "lat": 43.3237078,
    "lng": -1.9864426,
    "placeId": "ChIJoQzyEE2lUQ0R9LFGEedT4Xk"
  },
  {
    "id": "la-cepa",
    "zone": "antiguo",
    "type": "pintxos",
    "tier": 2,
    "name": "Bar La Cepa",
    "addr": "31 de Agosto, 7",
    "hours": "Todos los días 11:00–23:00",
    "tags": [
      "Brocheta de gambas o pulpo",
      "Brocheta de solomillo",
      "Mixtos de jamón / york / ibérico",
      "Queso azul"
    ],
    "lat": 43.3243034,
    "lng": -1.9850321,
    "placeId": "ChIJMevYsk2lUQ0R7ABFE3h8DBQ"
  },
  {
    "id": "haizea",
    "zone": "antiguo",
    "type": "pintxos",
    "tier": 2,
    "name": "Bar Haizea",
    "addr": "Calle Aldamar, 8",
    "hours": "Lun–sáb 7:30–15:30 y 19:00–23:00 · cerrado dom",
    "tags": [
      "Brick de bacalao",
      "Vieira"
    ],
    "lat": 43.3234426,
    "lng": -1.9821689,
    "placeId": "ChIJBSWSa06lUQ0R2LPYfnoUwTA"
  },
  {
    "id": "zazpi",
    "zone": "antiguo",
    "type": "pintxos",
    "tier": 2,
    "name": "Zazpi",
    "addr": "Plaza Zuloaga, 1",
    "hours": "Mar–dom 10:00–20:00 / 23:00 · cerrado lun",
    "tags": [
      "Pintxos de autor junto al museo San Telmo"
    ],
    "lat": 43.3253631,
    "lng": -1.9847454,
    "placeId": "ChIJAbrs9lClUQ0RKB-88hhYfkI"
  },
  {
    "id": "ganbara",
    "zone": "antiguo",
    "type": "pintxos",
    "tier": 1,
    "name": "Bar Ganbara",
    "addr": "San Jerónimo, 21",
    "hours": "Mar–sáb 12:30–15:30 y 19:00–22:30 · cerrado dom–lun",
    "tags": [
      "Hojaldre de txistorra"
    ],
    "lat": 43.3234339,
    "lng": -1.9855011,
    "placeId": "ChIJxU5xoU2lUQ0RTkXZGzyoIPo"
  },
  {
    "id": "la-cuchara-san-telmo",
    "zone": "antiguo",
    "type": "pintxos",
    "tier": 1,
    "name": "La Cuchara de San Telmo",
    "addr": "Santa Korda, 4 (31 de Agosto)",
    "hours": "Mar–dom 12:00–16:00 y 19:00–23:00 · cerrado lun",
    "tags": [
      "Pulpo de roca",
      "Risotto falso"
    ],
    "lat": 43.3245016,
    "lng": -1.9853227,
    "placeId": "ChIJ7WeBrE2lUQ0R8b8U5UpHiQE"
  },
  {
    "id": "goiz-argi",
    "zone": "antiguo",
    "type": "pintxos",
    "tier": 1,
    "name": "Bar Goiz Argi",
    "addr": "Fermín Calbetón, 4",
    "hours": "Todos los días 11:30–16:00 y 18:30–23:00",
    "tags": [
      "Brocheta de gambas"
    ],
    "lat": 43.3236111,
    "lng": -1.9833333,
    "placeId": "ChIJISHh2E2lUQ0RE2nJzJgbhmU"
  },
  {
    "id": "astelena",
    "zone": "antiguo",
    "type": "pintxos",
    "tier": 1,
    "name": "Bar Astelena",
    "addr": "Plaza de la Constitución (Euskal Herria, 3)",
    "hours": "Horario partido · cerrado lunes",
    "tags": [
      "Clásico de la plaza"
    ],
    "lat": 43.3242241,
    "lng": -1.9824202,
    "placeId": "ChIJ19jyY06lUQ0RlT7izQh1XdU"
  },
  {
    "id": "paco-bueno",
    "zone": "antiguo",
    "type": "pintxos",
    "tier": 1,
    "name": "Paco Bueno",
    "addr": "Calle Mayor, 6",
    "hours": "11:00–15:00 y 18:00–22:00 · cerrado viernes",
    "tags": [
      "Gambas y calamares rebozados — un clásico"
    ],
    "lat": 43.3226361,
    "lng": -1.985675,
    "placeId": "ChIJjYLId02lUQ0RAGMrmbG4_y0"
  },
  {
    "id": "bar-antonio",
    "zone": "centro",
    "type": "pintxos",
    "tier": 3,
    "name": "Bar Antonio",
    "addr": "Calle Bergara, 3",
    "hours": "Lun–sáb 9:00–23:00 · cerrado dom",
    "tags": [
      "Tortilla de patatas",
      "Ensaladilla",
      "Ravioli de langostino",
      "Brocheta de pulpo o langostinos en vinagreta",
      "Pintxo de cordero",
      "Pintxo Arzak",
      "Crujiente de rabo de buey",
      "Pintxo Igeldo"
    ],
    "note": "El mítico — mejor que el del Boulevard. Godello blanco buenísimo",
    "lat": 43.3197231,
    "lng": -1.9806282,
    "placeId": "ChIJ6T6eVVClUQ0Rr67NXUZTqSw"
  },
  {
    "id": "kata4",
    "zone": "centro",
    "type": "pintxos",
    "tier": 1,
    "name": "Kata4",
    "addr": "Junto al Hotel María Cristina",
    "hours": "Consultar",
    "tags": [
      "Terraza agradable",
      "Buena materia prima"
    ],
    "note": "No es de mis favoritos, pero cumple",
    "lat": 43.3218078,
    "lng": -1.9801059,
    "search": "Kata4 San Sebastian"
  },
  {
    "id": "gure-txoko",
    "zone": "gros",
    "type": "pintxos",
    "tier": 3,
    "name": "El Gure Txoko",
    "addr": "Calle Usandizaga, 5",
    "hours": "Mar–sáb 12:00–16:00 y 19:00–23:30, dom solo mediodía · cerrado lun",
    "tags": [
      "Bocatita de merluza con alioli y tinta",
      "Bocatita de rabas",
      "Huevo a baja temperatura con hongos",
      "Cangreburger"
    ],
    "lat": 43.3235547,
    "lng": -1.9780336,
    "placeId": "ChIJR_PLZkWlUQ0RcUk-13HEmAo"
  },
  {
    "id": "bodeguilla-donostiarra",
    "zone": "gros",
    "type": "pintxos",
    "tier": 2,
    "name": "La Bodeguilla Donostiarra",
    "addr": "Peña y Goñi, 13",
    "hours": "Lun–vie 9:30–23:00, sáb hasta 23:30 · cerrado dom",
    "tags": [
      "Merluza rebozada",
      "Cabeza de jabalí en vinagreta",
      "Mini tortilla individual",
      "Mini de piparra, antxoa y bonito",
      "Ensaladilla rusa"
    ],
    "lat": 43.3232002,
    "lng": -1.9774432,
    "placeId": "ChIJ6XYVQkWlUQ0RrKLaNKQolCI"
  }
]